[
  {
    "lat": "52.132509",
    "lng": "0.1390254",
    "name": "Babraham Research Campus",
    "description": "Cambridge CB22 3AT, UK",
    "icon": null,
    "type": "location",
    "distanceFromOrigin": null,
    "annualParking": null,
    "costArrSt": null
  },
  {
    "lat": "52.1725291",
    "lng": "0.1340254",
    "name": "Cambridge Biomedical Campus",
    "description": "Cambridge CB2 0AA, UK",
    "icon": null,
    "type": "location",
    "distanceFromOrigin": null,
    "annualParking": null,
    "costArrSt": null
  },
  {
    "lat": "52.1920702",
    "lng": "0.1334396",
    "name": "Central Cambridge Campus",
    "description": "Hills Rd, Cambridge CB2 1RY, UK",
    "icon": null,
    "type": "location",
    "distanceFromOrigin": null,
    "annualParking": null,
    "costArrSt": null
  },
  {
    "lat": "52.176906",
    "lng": "0.135590",
    "name": "CR:UK ",
    "description": "University of Cambridge, Robinson Way, Cambridge CB2 0RE, UK",
    "icon": null,
    "type": "location",
    "distanceFromOrigin": null,
    "annualParking": null,
    "costArrSt": null
  },
  {
    "lat": "52.2345228",
    "lng": "0.1397953",
    "name": "Darwin",
    "description": "Milton Rd, Milton, Cambridge CB4 0WG, UK",
    "icon": null,
    "type": "location",
    "distanceFromOrigin": null,
    "annualParking": null,
    "costArrSt": null
  },
  {
    "lat": "52.08758",
    "lng": "0.0260976",
    "name": "Da Vinci",
    "description": "Melbourn, Royston SG8 6EE, UK",
    "icon": null,
    "type": "location",
    "distanceFromOrigin": null,
    "annualParking": null,
    "costArrSt": null
  },
  {
    "lat": "52.1182187",
    "lng": "0.2282319",
    "name": "Granta Park",
    "description": "Great Abington, Cambridge CB21 6AD, UK",
    "icon": null,
    "type": "location",
    "distanceFromOrigin": null,
    "annualParking": null,
    "costArrSt": null
  },
  {
    "lat": "52.0540702",
    "lng": "0.209985",
    "name": "Hodgkin",
    "description": "Saffron Walden CB10 1TS, UK",
    "icon": null,
    "type": "location",
    "distanceFromOrigin": null,
    "annualParking": null,
    "costArrSt": null
  }
]
